[{"id":266,"name":"101 North Brewing Company","brewery_type":"micro","street":"1304 Scott St Ste D","city":"Petaluma","state":"California","postal_code":"94954-7100","country":"United States","longitude":null,"latitude":null,"phone":"7077534934","website_url":"http://www.101northbeer.com","updated_at":"2018-08-11T21:35:52.659Z","tag_list":[]},{"id":2563,"name":"10-56 Brewing Company","brewery_type":"micro","street":"400 Brown Cir","city":"Knox","state":"Indiana","postal_code":"46534","country":"United States","longitude":"-86.627954","latitude":"41.289715","phone":"6308165790","website_url":"","updated_at":"2018-08-24T00:32:24.965Z","tag_list":[]},{"id":5694,"name":"10 Barrel Brewing Co","brewery_type":"large","street":"62970 18th St","city":"Bend","state":"Oregon","postal_code":"97701-9847","country":"United States","longitude":null,"latitude":null,"phone":"5415851007","website_url":"http://www.10barrel.com","updated_at":"2018-08-11T21:39:09.349Z","tag_list":[]},{"id":2242,"name":"10 Barrel Brewing Co","brewery_type":"large","street":"830 W Bannock St","city":"Boise","state":"Idaho","postal_code":"83702-5857","country":"United States","longitude":"-116.202360204082","latitude":"43.6174335918367","phone":"5416785228","website_url":"http://www.10barrel.com","updated_at":"2018-08-24T00:29:51.675Z","tag_list":[]},{"id":265,"name":"10 Barrel Brewing Co","brewery_type":"large","street":"1501 E St","city":"San Diego","state":"California","postal_code":"92101-6618","country":"United States","longitude":"-117.129593","latitude":"32.714813","phone":"6195782311","website_url":"http://10barrel.com","updated_at":"2018-08-23T23:23:41.575Z","tag_list":[]},{"id":5695,"name":"10 Barrel Brewing Co","brewery_type":"large","street":"1411 NW Flanders St","city":"Portland","state":"Oregon","postal_code":"97209-2620","country":"United States","longitude":"-122.685505575334","latitude":"45.5259786","phone":"5032241700","website_url":"http://www.10barrel.com","updated_at":"2018-08-24T15:45:43.287Z","tag_list":[]},{"id":5696,"name":"10 Barrel Brewing Co","brewery_type":"large","street":"1135 NW Galveston Ave Ste B","city":"Bend","state":"Oregon","postal_code":"97703-2465","country":"United States","longitude":null,"latitude":null,"phone":"5415851007","website_url":"","updated_at":"2018-08-11T21:39:09.426Z","tag_list":[]},{"id":5697,"name":"10 Barrel Brewing Co - Bend Pub","brewery_type":"large","street":"62950 NE 18th St","city":"Bend","state":"Oregon","postal_code":"97701","country":"United States","longitude":"-121.2809536","latitude":"44.0912109","phone":"5415851007","website_url":"","updated_at":"2018-08-24T15:45:44.243Z","tag_list":[]},{"id":1191,"name":"10 Barrel Brewing Co - Denver","brewery_type":"large","street":"2620 Walnut St","city":"Denver","state":"Colorado","postal_code":"80205-2231","country":"United States","longitude":"-104.9853655","latitude":"39.7592508","phone":"7205738992","website_url":"","updated_at":"2018-08-24T00:05:11.372Z","tag_list":[]},{"id":3206,"name":"10th District Brewing Company","brewery_type":"micro","street":"491 Washington St","city":"Abington","state":"Massachusetts","postal_code":"02351-2419","country":"United States","longitude":"-70.9459414892185","latitude":"42.1059175414395","phone":"7813071554","website_url":"http://www.10thdistrictbrewing.com","updated_at":"2018-08-24T00:40:55.685Z","tag_list":[]},{"id":4237,"name":"10 Torr Distilling and Brewing","brewery_type":"micro","street":"490 Mill St","city":"Reno","state":"Nevada","postal_code":"89502","country":"United States","longitude":"-119.7732015","latitude":"39.5171702","phone":"7755307014","website_url":"http://www.10torr.com","updated_at":"2018-08-24T00:47:53.125Z","tag_list":[]},{"id":6597,"name":"11 Below Brewing Company","brewery_type":"micro","street":"6820 Bourgeois Rd","city":"Houston","state":"Texas","postal_code":"77066-3107","country":"United States","longitude":"-95.5186591","latitude":"29.9515464","phone":"2814442337","website_url":"http://www.11belowbrewing.com","updated_at":"2018-08-24T16:18:20.582Z","tag_list":[]},{"id":4570,"name":"12 Gates Brewing Company","brewery_type":"brewpub","street":"80 Earhart Dr Ste 20","city":"Williamsville","state":"New York","postal_code":"14221-7804","country":"United States","longitude":null,"latitude":null,"phone":"7169066600","website_url":"http://www.12gatesbrewing.com","updated_at":"2018-08-11T21:38:28.876Z","tag_list":[]},{"id":92,"name":"12 West Brewing Company","brewery_type":"micro","street":"3000 E Ray Rd Bldg 6","city":"Gilbert","state":"Arizona","postal_code":"85296-7832","country":"United States","longitude":null,"latitude":null,"phone":"6023395014","website_url":"http://www.12westbrewing.com","updated_at":"2018-08-11T21:35:46.300Z","tag_list":[]},{"id":93,"name":"12 West Brewing Company - Production Facility","brewery_type":"micro","street":"","city":"Mesa","state":"Arizona","postal_code":"85207","country":"United States","longitude":"-111.586066176293","latitude":"33.436188","phone":"","website_url":"","updated_at":"2018-08-23T23:21:09.992Z","tag_list":[]},{"id":267,"name":"14 Cannons Brewing Company","brewery_type":"micro","street":"31125 Via Colinas Ste 907","city":"Westlake Village","state":"California","postal_code":"91362-3974","country":"United States","longitude":"-118.802397","latitude":"34.15334","phone":"8186996165","website_url":"http://14cannons.com","updated_at":"2018-08-23T23:23:43.357Z","tag_list":[]},{"id":1194,"name":"14er Brewing Company","brewery_type":"proprietor","street":"2801 Walnut St","city":"Denver","state":"Colorado","postal_code":"80205-2235","country":"United States","longitude":"-104.9839636","latitude":"39.7614112","phone":"7207731437","website_url":"http://www.14erBrewing.com","updated_at":"2018-08-24T00:05:13.974Z","tag_list":[]},{"id":3768,"name":"14 Lakes Brewery","brewery_type":"micro","street":"","city":"Crosslake","state":"Minnesota","postal_code":"56442","country":"United States","longitude":null,"latitude":null,"phone":"2186924129","website_url":"","updated_at":"2018-08-11T21:37:58.724Z","tag_list":[]},{"id":7004,"name":"14th Star Brewing","brewery_type":"micro","street":"133 N Main St Ste 7","city":"Saint Albans","state":"Vermont","postal_code":"05478-1735","country":"United States","longitude":null,"latitude":null,"phone":"8025285988","website_url":"http://www.14thstarbrewing.com","updated_at":"2018-08-11T21:39:58.560Z","tag_list":[]},{"id":5002,"name":"1718 Ocracoke Brewing","brewery_type":"brewpub","street":"1129 Irvin Garrish Hwy","city":"Ocracoke","state":"North Carolina","postal_code":"27960","country":"United States","longitude":"-75.9717606279572","latitude":"35.1071536760532","phone":"2529282337","website_url":"http://www.ocracokebrewing.com","updated_at":"2018-08-24T15:40:56.290Z","tag_list":[]},{"id":7066,"name":"1781 Brewing Company","brewery_type":"micro","street":"11109 Plank Rd","city":"Spotsylvania","state":"Virginia","postal_code":"22553-4258","country":"United States","longitude":null,"latitude":null,"phone":"5408412598","website_url":"","updated_at":"2018-08-11T21:40:01.097Z","tag_list":[]},{"id":5339,"name":"17th State Brewing Company","brewery_type":"contract","street":"","city":null,"state":null,"postal_code":null,"country":"United States","longitude":null,"latitude":null,"phone":"","website_url":"http://www.17statebrewco.com","updated_at":"2018-07-24T01:33:59.352Z","tag_list":[]},{"id":5991,"name":"180 and Tapped","brewery_type":"micro","street":"2010 A State Ave","city":"Coraopolis","state":"Pennsylvania","postal_code":"15108","country":"United States","longitude":"-80.1502035633831","latitude":"40.5098495749574","phone":"4127375273","website_url":"http://www.180andtapped.com","updated_at":"2018-08-24T16:05:59.261Z","tag_list":[]},{"id":7780,"name":"1840 Brewing Company","brewery_type":"micro","street":"342 E Ward St","city":"Milwaukee","state":"Wisconsin","postal_code":"53207-1348","country":"United States","longitude":"-87.9060694231764","latitude":"43.004362417813","phone":"4142364056","website_url":"http://www.1840brewing.com","updated_at":"2018-08-24T16:41:45.251Z","tag_list":[]},{"id":268,"name":"1850 Brewing Company","brewery_type":"micro","street":"","city":"Mariposa","state":"California","postal_code":"95338","country":"United States","longitude":"-119.9036592","latitude":"37.570148","phone":"","website_url":"http://www.1850restaurant.com","updated_at":"2018-08-23T23:23:43.827Z","tag_list":[]},{"id":2304,"name":"1905 Brewing Company","brewery_type":"micro","street":"1301 S Chestnut St","city":"Assumption","state":"Illinois","postal_code":"62510-8504","country":"United States","longitude":"-89.0503635","latitude":"39.5172564","phone":"2172549374","website_url":"http://1905BrewingCompany.com","updated_at":"2018-08-24T00:30:21.692Z","tag_list":[]},{"id":4572,"name":"1940's Brewing Company","brewery_type":"micro","street":"1337 Lincoln Ave Unit 1","city":"Holbrook","state":"New York","postal_code":"11741-2275","country":"United States","longitude":null,"latitude":null,"phone":"6315334838","website_url":"http://www.1940sbrewingcompany.com","updated_at":"2018-08-11T21:38:29.022Z","tag_list":[]},{"id":4574,"name":"212 Brewing Company","brewery_type":"contract","street":"21476 Route 23","city":"Davenport","state":"New York","postal_code":"13750","country":"United States","longitude":null,"latitude":null,"phone":"2123779050","website_url":"","updated_at":"2018-08-11T21:38:29.172Z","tag_list":[]},{"id":270,"name":"21st Amendment Brewery","brewery_type":"regional","street":"2010 Williams St Unit A","city":"San Leandro","state":"California","postal_code":"94577-2334","country":"United States","longitude":null,"latitude":null,"phone":"5105952111","website_url":"http://www.21st-Amendment.com","updated_at":"2018-08-11T21:35:52.771Z","tag_list":[]},{"id":271,"name":"21st Amendment Brewery Cafe","brewery_type":"brewpub","street":"563 2nd St","city":"San Francisco","state":"California","postal_code":"94107-1411","country":"United States","longitude":"-122.3925769","latitude":"37.782448","phone":"4153690900","website_url":"http://www.21st-amendment.com","updated_at":"2018-08-23T23:23:46.486Z","tag_list":[]},{"id":7329,"name":"238 Brewing Company","brewery_type":"micro","street":"10321 E Day Mt Spokane Rd","city":"Mead","state":"Washington","postal_code":"99021","country":"United States","longitude":null,"latitude":null,"phone":"5092382739","website_url":"http://www.238brewing.com","updated_at":"2018-08-11T21:40:11.273Z","tag_list":[]},{"id":2869,"name":"23 Brewing Company / Lizzie B's Cafe","brewery_type":"brewpub","street":"2010 KY Route 321","city":"Prestonsburg","state":"Kentucky","postal_code":"41653-9103","country":"United States","longitude":null,"latitude":null,"phone":"6068862844","website_url":"http://www.23brewingcompany.com","updated_at":"2018-08-11T21:37:26.890Z","tag_list":[]},{"id":1783,"name":"26 Degree Brewing Company","brewery_type":"micro","street":"2600 E Atlantic Blvd","city":"Pompano Beach","state":"Florida","postal_code":"33062-4940","country":"United States","longitude":"-80.1224169","latitude":"26.2316338","phone":"9545326964","website_url":"","updated_at":"2018-08-24T00:26:20.252Z","tag_list":[]},{"id":6598,"name":"28th State Brewing","brewery_type":"planning","street":"","city":"Houston","state":"Texas","postal_code":"77095-6933","country":"United States","longitude":null,"latitude":null,"phone":"","website_url":"","updated_at":"2018-08-11T21:39:44.636Z","tag_list":[]},{"id":4088,"name":"2 Basset Brewery","brewery_type":"micro","street":"202 E Main St","city":"White Sulphur Springs","state":"Montana","postal_code":"59645-9081","country":"United States","longitude":"-110.900486489644","latitude":"46.5480760866913","phone":"4065472337","website_url":"http://www.2bassetbrewery.com","updated_at":"2018-08-24T00:46:55.355Z","tag_list":[]},{"id":2243,"name":"2C Family Brewing Co.","brewery_type":"planning","street":"","city":"Nampa","state":"Idaho","postal_code":"83651-3957","country":"United States","longitude":null,"latitude":null,"phone":"2089954802","website_url":"","updated_at":"2018-08-11T21:37:05.099Z","tag_list":[]},{"id":5992,"name":"2 Dogz and A Guy Brewing","brewery_type":"micro","street":"228 Church St","city":"Montrose","state":"Pennsylvania","postal_code":"18801-1271","country":"United States","longitude":"-75.8800318","latitude":"41.8336364","phone":"5704320069","website_url":"http://2dogzandaguybrewing.com","updated_at":"2018-08-24T16:06:00.754Z","tag_list":[]},{"id":2974,"name":"2 Feet Brewing Company","brewery_type":"brewpub","street":"80 Columbia St","city":"Bangor","state":"Maine","postal_code":"04401-6319","country":"United States","longitude":"-68.7728309911078","latitude":"44.8001268407908","phone":"2075731979","website_url":"http://www.2feetbrewing.com","updated_at":"2018-08-24T00:39:29.017Z","tag_list":[]},{"id":272,"name":"2Kids Brewing Company","brewery_type":"micro","street":"8680 Miralani Dr Ste 123","city":"San Diego","state":"California","postal_code":"92126-6391","country":"United States","longitude":"-117.137429","latitude":"32.896584","phone":"8584805437","website_url":"http://www.2kidsBrewing.com","updated_at":"2018-08-23T23:23:47.575Z","tag_list":[]},{"id":5993,"name":"2nd Story Brewing Company","brewery_type":"brewpub","street":"117 Chestnut St Frnt","city":"Philadelphia","state":"Pennsylvania","postal_code":"19106-4700","country":"United States","longitude":null,"latitude":null,"phone":"2673145770","website_url":"http://www.2ndstorybrewing.com/","updated_at":"2018-08-11T21:39:21.556Z","tag_list":[]},{"id":7067,"name":"2 Silos Brewing Company","brewery_type":"micro","street":"9925 Discovery Blvd","city":"Manassas","state":"Virginia","postal_code":"20109","country":"United States","longitude":null,"latitude":null,"phone":"7034202257","website_url":"http://www.2silosbrewing.com","updated_at":"2018-08-11T21:40:01.159Z","tag_list":[]},{"id":5994,"name":"2SP Brewing Company","brewery_type":"micro","street":"120 Concord Rd","city":"Aston","state":"Pennsylvania","postal_code":"19014-2909","country":"United States","longitude":null,"latitude":null,"phone":"4844837860","website_url":"http://www.2spbrewing.com","updated_at":"2018-08-11T21:39:21.594Z","tag_list":[]},{"id":2566,"name":"2Toms Brewing Company","brewery_type":"brewpub","street":"","city":null,"state":null,"postal_code":null,"country":"United States","longitude":null,"latitude":null,"phone":"2604027644","website_url":"http://www.2tomsbrewing.com","updated_at":"2018-07-24T01:33:21.219Z","tag_list":[]},{"id":269,"name":"2 Tread Brewing Co","brewery_type":"brewpub","street":"1018 Santa Rosa Plz","city":"Santa Rosa","state":"California","postal_code":"95401-6399","country":"United States","longitude":"-122.716772864805","latitude":"38.4387767","phone":"4152330857","website_url":"http://www.2treadbrewing.com","updated_at":"2018-08-23T23:23:44.684Z","tag_list":[]},{"id":4573,"name":"2 Way Brewing Company","brewery_type":"brewpub","street":"18 W Main St","city":"Beacon","state":"New York","postal_code":"12508-2512","country":"United States","longitude":"-73.9809868","latitude":"41.5082102","phone":"8452027334","website_url":"http://www.2waybrewingcompany.com","updated_at":"2018-08-24T15:37:55.658Z","tag_list":[]},{"id":7068,"name":"2 Witches Winery and Brewing Company","brewery_type":"micro","street":"209 Trade St","city":"Danville","state":"Virginia","postal_code":"24541-3545","country":"United States","longitude":"-79.4212555321536","latitude":"36.5859034854422","phone":"4345492739","website_url":"http://www.2witcheswinebrew.com","updated_at":"2018-08-24T16:26:47.616Z","tag_list":[]},{"id":1196,"name":"300 Suns Brewing Company","brewery_type":"brewpub","street":"335 1st Ave Unit C","city":"Longmont","state":"Colorado","postal_code":"80501-5958","country":"United States","longitude":null,"latitude":null,"phone":"","website_url":"http://www.300sunsbrewing.com","updated_at":"2018-08-11T21:36:29.918Z","tag_list":[]},{"id":5004,"name":"34 Degree North Experiment Station","brewery_type":"micro","street":"4802 Main St","city":"Shallotte","state":"North Carolina","postal_code":"28470","country":"United States","longitude":"-78.3863651732097","latitude":"33.9727036424402","phone":"","website_url":"","updated_at":"2018-08-24T15:40:57.334Z","tag_list":[]},{"id":4089,"name":"380 Brewing Company","brewery_type":"planning","street":"","city":"Clancy","state":"Montana","postal_code":"59634","country":"United States","longitude":null,"latitude":null,"phone":"2065796509","website_url":"","updated_at":"2018-08-11T21:38:10.167Z","tag_list":[]},{"id":1197,"name":"38 State Brewing","brewery_type":"micro","street":"8071 S Broadway Ste A","city":"Littleton","state":"Colorado","postal_code":"80122-2730","country":"United States","longitude":null,"latitude":null,"phone":"7206383678","website_url":"http://www.38statebrew.com","updated_at":"2018-08-11T21:36:29.954Z","tag_list":[]}]